<?xml version="1.0" encoding="UTF-8"?>
<gpx creator="Ethanology" version="1.1"
  xmlns="http://www.topografix.com/GPX/1/1">
  <metadata>
    <time>2017-06-07T12:55:10.000Z</time>
  </metadata>
  <trk>
    
    <trkseg>
	 <trkpt lat="55.8646" lon="-4.2611">
        <name>Flat 0/1,</name>
		<desc>Party bar with resident DJs, decorated in the style of a flat with 1970s decor, a bed and a kitchen./</desc>
		<extensions>
		<rating>4.2,</rating>
     <img>http://localhost/Flat01.jpg,</img>
        </extensions>
      </trkpt>
      <trkpt lat="55.862932" lon="-4.256330">
		<name>Revolution Glasgow, </name>
		<desc>A stylish bar with a penchant for vodka, Revolution is a fun party venue for a night out in Glasgow./</desc>
        <extensions>
		<rating>4.0,</rating>
    <img>http://localhost/RevolutionGlasgow.jpg,</img>
        </extensions>
      </trkpt>
      <trkpt lat="55.8601" lon="-4.2476">
		<name>Speakeasy,</name>
		<desc>Stylized drinking den with booths, homely food, retro tunes and modern takes on classic cocktails./</desc>
		<extensions>
		<rating>4.3,</rating>
    <img>http://localhost/Speakeasy.jpg,</img>
        </extensions>
      </trkpt>
	  <trkpt lat="55.859480" lon="-4.252281">
        <name>La Cheetah,</name>
		<desc>Regular club nights fill this lively venue with a range of music most Wednesdays to Saturdays./</desc>
		<extensions>
		<rating>4.0,</rating>
    <img>http://localhost/LaCheetah.jpg,</img>
        </extensions>
      </trkpt>
	  	  <trkpt lat="55.8579" lon="-4.2572">
        <name>Sub Club,</name>
		<desc>Longest running underground dance club in the world./</desc>
		<extensions>
		<count>5</count>
		<rating>4.4,</rating>
    <img>http://localhost/subclub.jpg,</img>
        </extensions>
      </trkpt>
	 
    </trkseg>
  </trk>
</gpx>
