<?xml version="1.0" encoding="UTF-8"?>
<gpx creator="Ethanology" version="1.1"
  xmlns="http://www.topografix.com/GPX/1/1">
	<metadata>
		<time>2017-06-07T12:55:10.000Z</time>
	</metadata>
	<trk>
		<name>Master</name>
		<type>drinking</type>
		<trkseg>
			<trkpt lat="55.858227" lon="-4.244961">
				<pname>Distrikt, </pname>
				<desc>Inside you’ll find an intimate venue, boasting a bar with the club’s name lit up in lights a dark colour scheme undercut by green and red neon lights./</desc>
				<extensions>
					<count>22</count>
					<rating>3.0,</rating> 
					<img>Students/Distrikt.png,</img>
					<type>Students</type>
				</extensions>
			</trkpt>
			<trkpt lat="55.8621" lon="-4.2485">
				<pname>The Ark,</pname>
				<desc>Contemporary city centre pub over 2 floors with a large TV screen and pool table and large beer garden./ </desc>
				<extensions>    
					<img>Students/Ark.png,</img>
					<rating>4.1,</rating>
					<type>Students</type>
				</extensions>
			</trkpt>
			<trkpt lat="55.865976" lon="-4.268277">
				<pname>Variety Bar,</pname>
				<desc>Appropriately named The Variety Bar on Sauchiehall Street draws in a mixed bag of punters from ammateur musicians to clusters of students to long standing regulars and the after-work pint tippers./ </desc>
				<extensions>
					<rating>4.2,</rating>
					<img>Students/VarietyBar.png,</img>
					<type>Students</type>
				</extensions>
			</trkpt>


			<trkpt lat="55.8709" lon="-4.2992">
				<pname>The Record Factory,</pname>
				<desc>The Record Factory is an ambitious fusion of music and revelry in Glasgow. With impeccable acoustics and hip design this West End Dive Bar has fast became the best late night hangout in the West End with a 2am license./</desc>
				<extensions>
					<rating>4.2,</rating>
					<img>SportsBar/RecordFactory.jpg,</img>
					<type>Sports</type>
				</extensions>
			</trkpt>
			<trkpt lat="55.8638" lon="-4.2809">
				<pname>The Brass Monkey,</pname>
				<desc>Lively pub offering a range of craft beers and wines and cocktails and plus regular TV sports./</desc>
				<extensions>
					<rating>4.0,</rating>
					<img>SportsBar/BrassMonkey.jpg,</img>
					<type>Sports</type>
				</extensions>
			</trkpt>  
			<trkpt lat="55.8621" lon="-4.2531">
				<pname>Waxy O'Connor's,</pname>
				<desc>With 3 floors 6 bars and 9 different areas and Waxy's is one of Glasgow's most unique bars. Enjoy great food and great service and live music in amazing surroundings!/</desc>
				<extensions>
					<rating>4.2,</rating>
					<img>SportsBar/WaxyOConnor.jpg,</img>
					<type>Sports</type>
				</extensions>
			</trkpt>

			<trkpt lat="55.8587" lon="-4.2454">
				<pname>The Beer Cafe,</pname>
				<desc>European-style bar with global drinks list and pie menu and live music and plus tables on historic square./</desc>
				<extensions>
					<rating>4.2,</rating>
					<img>LiveMusic/BeerCafe.jpg,</img>
					<type>LiveMusic</type>
				</extensions>
			</trkpt>
			<trkpt lat="55.866010" lon="-4.268959">
				<pname>Nice N Sleazy,</pname>
				<desc>Open til the early hours seven nights a week Nice N Sleazy is a Sauchiehall Street bar and club that caters to the weird and the wonderful among Glasgow's clubberatti./</desc>
				<extensions>
					<rating>4.3,</rating>
					<img>LiveMusic/NiceNSleazy.png,</img>	
					<type>LiveMusic,</type>
				</extensions>
			</trkpt>
			<trkpt lat="55.8748" lon="-4.2927">
				<pname>Jinty McGuinty's Irish Bar,</pname>
				<desc>Pub serving oysters with beer garden and live music from up and coming bands or singers 6 days./</desc>
				<extensions>
					<rating>4.4,</rating>
					<img>LiveMusic/Jinty.png,</img>
					<type>LiveMusic</type>
				</extensions>
			</trkpt>

			<trkpt lat="55.8646" lon="-4.2611">
				<pname>Flat 0/1,</pname>
				<desc>Party bar with resident DJ decorated in the style of a flat with 1970s decor and bed and a kitchen./</desc>
				<extensions>
					<rating>4.2,</rating>
					<img>FuntimeParty/Flat01.jpg,</img>
					<type>FunTimeParty</type>
				</extensions>
			</trkpt>
			<trkpt lat="55.862932" lon="-4.256330">
				<pname>Revolution Glasgow, </pname>
				<desc>A stylish bar with a penchant for vodka Revolution is a fun party venue for a night out in Glasgow./</desc>
				<extensions>
					<rating>4.0,</rating>
					<img>FuntimeParty/RevolutionGlasgow.jpg,</img>
					<type>FunTimeParty</type>
				</extensions>
			</trkpt>
			<trkpt lat="55.8601" lon="-4.2476">
				<pname>Speakeasy,</pname>
				<desc>Stylized drinking den with booths and homely food and retro tunes and modern takes on classic cocktails./</desc>
				<extensions>
					<rating>4.3,</rating>
					<img>FuntimeParty/Speakeasy.jpg,</img>
					<type>FunTimeParty</type>
				</extensions>
			</trkpt>
			<trkpt lat="55.859480" lon="-4.252281">
				<pname>La Cheetah,</pname>
				<desc>Regular club nights fill this lively venue with a range of music most Wednesdays to Saturdays./</desc>
				<extensions>
					<rating>4.0,</rating>
					<img>FuntimeParty/LaCheetah.jpg,</img>
					<type>FunTimeParty</type>
				</extensions>
			</trkpt>
			<trkpt lat="55.8579" lon="-4.2572">
				<pname>Sub Club,</pname>
				<desc>Longest running underground dance club in the world./</desc>
				<extensions>
					<rating>4.4,</rating>
					<img>FuntimeParty/subclub.jpg,</img>
					<type>FunTimeParty</type>
				</extensions>
			</trkpt>

			<trkpt lat="55.870793" lon="-4.315559">
				<pname>Six Degree North, </pname>
				<desc>Promising to deliver "new tastes with old fashioned service" the latest Six°North venture will feature over 30 taps that flow with top brews./</desc>
				<extensions>
					<rating>4.5,</rating>
					<img>EatDrink/SixDegreeNorth.png,</img>
					<type>EatDrink</type>
				</extensions>
			</trkpt>
			<trkpt lat="55.864956" lon="-4.275821">
				<pname>Cubatas, </pname>
				<desc>Lively stone-walled bar-restaurant serving authentic paella and tapas and other Spanish favourites./</desc>
				<extensions>
					<rating>4.3,</rating>
					<img>EatDrink/Cubatas.png,</img>
					<type>EatDrink</type>
				</extensions>
			</trkpt>
			<trkpt lat="55.861810" lon="-4.254474">
				<pname>Absurd Bird Glasgow,</pname>
				<desc>Quirky chicken shop with a large variety of meaty dishes and a great selection of cocktails./</desc>
				<extensions>
					<rating>4.2,</rating>
					<img>EatDrink/AbsurdBird.png,</img>
					<type>EatDrink</type>
				</extensions>
			</trkpt>

			<trkpt lat="55.8661" lon="-4.2685">
				<pname>The Garage,</pname>
				<desc>Variety of rooms and bars with a huge main dance floor for raucous foam parties and live bands./</desc>
				<extensions>
					<rating>3.5,</rating>
					<img>DrinkDance/Garage.png,</img>
					<type>DrinkDance</type>
				</extensions>
			</trkpt>

			<trkpt lat="55.859311" lon="-4.247914">
				<pname>Doghouse Merchant City,</pname>
				<desc>Funky industrial chic-style bar serving Brewdog beers and a list of guest brews and snacky food./</desc>
				<extensions>
					<rating>4.5,</rating>
					<img>ChillingWithMates/DogHouse.jpg,</img>
					<type>ChillingWithMates</type>
				</extensions>
			</trkpt>
			<trkpt lat="55.8587" lon="-4.242">
				<pname>McChuills,</pname>
				<desc>Global craft beers and live bands and a large screen for TV sport and a pool table in a boisterous pub./</desc>
				<extensions>
					<rating>4.4,</rating>
					<img>ChillingWithMates/McChuills.jpg,</img>
					<type>ChillingWithMates</type>
				</extensions>
			</trkpt>

			<trkpt lat="55.877938" lon="-4.291005">
				<pname>Hilton Glasgow Grosvenor, </pname>
				<desc>Lively stone-walled bar-restaurant serving authentic paella and tapas and other Spanish favourites./</desc>
				<extensions>
					<rating>4.1,</rating>
					<img>AfterWorkDrinks/HiltonGrosvenor.jpg,</img>
					<type>AfterWorkDrinks</type>
				</extensions>
			</trkpt>
			<trkpt lat="55.865" lon="-4.2757">
				<pname>Horn Please,</pname>
				<desc>Indian restaurant with a great selection of cocktails./</desc>
				<extensions>
					<rating>4.6,</rating>
					<img>AfterWorkDrinks/HornPlease.jpg,</img>
					<type>AfterWorkDrinks</type>
				</extensions>
			</trkpt>
			

		</trkseg>
	</trk>
</gpx>
